{
  "type": "FeatureCollection",
  "features": [
    {
      "type": "Feature",
      "geometry": {
        "type": "Point",
        "coordinates": [
          -73.975491,
          40.75162
        ]
      },
      "properties": {
        "name": "Chrysler Building",
        "address": "405 Lexington Ave, New York, NY 10174"
      }
    },
    {
      "type": "Feature",
      "geometry": {
        "type": "Point",
        "coordinates": [
          -73.985596,
          40.748516
        ]
      },
      "properties": {
        "name": "Empire State Building",
        "address": "350 5th Ave, New York, NY 10118"
      }
    },
    {
      "type": "Feature",
      "geometry": {
        "type": "Point",
        "coordinates": [
          -73.97884368896484,
          40.75881415324119
        ]
      },
      "properties": {
        "name": "30 Rockefeller Plaza",
        "address": "30 Rockefeller Plaza, New York, NY 10112"
      }
    },
    {
      "type": "Feature",
      "geometry": {
        "type": "Point",
        "coordinates": [
          -73.989667,
          40.741052
        ]
      },
      "properties": {
        "name": "Flatiron Building",
        "address": "1 E 23rd St, New York, NY 10010"
      }
    },
    {
      "type": "Feature",
      "geometry": {
        "type": "Point",
        "coordinates": [
          -73.977218,
          40.752726
        ]
      },
      "properties": {
        "name": "Grand Central Terminal",
        "address": "89 E 42nd St, New York, NY 10017"
      }
    },
    {
      "type": "Feature",
      "geometry": {
        "type": "Point",
        "coordinates": [
          -73.983492,
          40.772462
        ]
      },
      "properties": {
        "name": "Lincoln Center for the Performing Arts",
        "address": "10 Lincoln Center Plaza, New York, NY 10023"
      }
    },
    {
      "type": "Feature",
      "geometry": {
        "type": "Point",
        "coordinates": [
          -73.958968,
          40.782956
        ]
      },
      "properties": {
        "name": "Solomon R. Guggenheim Museum",
        "address": "1071 5th Ave, New York, NY 10128"
      }
    },
    {
      "type": "Feature",
      "geometry": {
        "type": "Point",
        "coordinates": [
          -74.004757,
          40.747986
        ]
      },
      "properties": {
        "name": "High Line",
        "address": "New York, NY 10011"
      }
    },
    {
      "type": "Feature",
      "geometry": {
        "type": "Point",
        "coordinates": [
          -73.99682,
          40.706092
        ]
      },
      "properties": {
        "name": "Brooklyn Bridge",
        "address": "Brooklyn Bridge, New York, NY"
      }
    },
    {
      "type": "Feature",
      "geometry": {
        "type": "Point",
        "coordinates": [
          -73.981902,
          40.768103
        ]
      },
      "properties": {
        "name": "Columbus Circle",
        "address": "1849 Broadway, New York, NY 10023"
      }
    },
    {
      "type": "Feature",
      "geometry": {
        "type": "Point",
        "coordinates": [
          -73.965344,
          40.782849
        ]
      },
      "properties": {
        "name": "Central Park",
        "address": "New York, NY 10024"
      }
    },
    {
      "type": "Feature",
      "geometry": {
        "type": "Point",
        "coordinates": [
          -87.623291,
          41.88269
        ]
      },
      "properties": {
        "name": "Cloud Gate",
        "address": "201 E Randolph St, Chicago, IL 60602"
      }
    },
    {
      "type": "Feature",
      "geometry": {
        "type": "Point",
        "coordinates": [
          -122.478553,
          37.820043
        ]
      },
      "properties": {
        "name": "Golden Gate Bridge",
        "address": "Golden Gate Bridge, San Francisco, CA 94129"
      }
    },
    {
      "type": "Feature",
      "geometry": {
        "type": "Point",
        "coordinates": [
          -77.035237,
          38.889461
        ]
      },
      "properties": {
        "name": "Washington Monument",
        "address": "2 15th St NW, Washington, DC 20007"
      }
    },
    {
      "type": "Feature",
      "geometry": {
        "type": "Point",
        "coordinates": [
          -87.635918,
          41.878864
        ]
      },
      "properties": {
        "name": "Willis Tower",
        "address": "233 S Wacker Dr, Chicago, IL 60606"
      }
    },
    {
      "type": "Feature",
      "geometry": {
        "type": "Point",
        "coordinates": [
          -122.349129,
          47.620463
        ]
      },
      "properties": {
        "name": "Space Needle",
        "address": "400 Broad St, Seattle, WA 98109"
      }
    },
    {
      "type": "Feature",
      "geometry": {
        "type": "Point",
        "coordinates": [
          -118.32161,
          34.134103
        ]
      },
      "properties": {
        "name": "Hollywood Sign",
        "address": "Hollywood, CA 90068"
      }
    },
    {
      "type": "Feature",
      "geometry": {
        "type": "Point",
        "coordinates": [
          -74.044505,
          40.689235
        ]
      },
      "properties": {
        "name": "Statue of Liberty",
        "address": "Liberty Island, New York, NY 10004"
      }
    }
  ]
}